[
  {
    "coords": {
      "lat": 34.5553494,
      "lon": 69.207486
    },
    "country": "Afghanistan",
    "name": "Kabul"
  },
  {
    "coords": {
      "lat": 41.3275459,
      "lon": 19.8186982
    },
    "country": "Albania",
    "name": "Tirana"
  },
  {
    "coords": {
      "lat": 36.752887,
      "lon": 3.042048
    },
    "country": "Algeria",
    "name": "Algiers"
  },
  {
    "coords": {
      "lat": -14.2756319,
      "lon": -170.7020359
    },
    "country": "American Samoa",
    "name": "Pago Pago"
  },
  {
    "coords": {
      "lat": 42.50631740000001,
      "lon": 1.5218355
    },
    "country": "Andorra",
    "name": "Andorra la Vella"
  },
  {
    "coords": {
      "lat": -8.839987599999999,
      "lon": 13.2894368
    },
    "country": "Angola",
    "name": "Luanda"
  },
  {
    "coords": {
      "lat": 18.2148129,
      "lon": -63.0574406
    },
    "country": "Anguilla",
    "name": "The Valley"
  },
  {
    "coords": {
      "lat": 17.1274104,
      "lon": -61.84677199999999
    },
    "country": "Antigua and Barbuda",
    "name": "Saint John's"
  },
  {
    "coords": {
      "lat": -34.6036844,
      "lon": -58.3815591
    },
    "country": "Argentina",
    "name": "Buenos Aires"
  },
  {
    "coords": {
      "lat": 40.1791857,
      "lon": 44.4991029
    },
    "country": "Armenia",
    "name": "Yerevan"
  },
  {
    "coords": {
      "lat": 12.5092044,
      "lon": -70.0086306
    },
    "country": "Aruba",
    "name": "Oranjestad"
  },
  {
    "coords": {
      "lat": -35.2819998,
      "lon": 149.1286843
    },
    "country": "Australia",
    "name": "Canberra"
  },
  {
    "coords": {
      "lat": 48.2081743,
      "lon": 16.3738189
    },
    "country": "Austria",
    "name": "Vienna"
  },
  {
    "coords": {
      "lat": 40.40926169999999,
      "lon": 49.8670924
    },
    "country": "Azerbaijan",
    "name": "Baku"
  },
  {
    "coords": {
      "lat": 26.2285161,
      "lon": 50.5860497
    },
    "country": "Bahrain",
    "name": "Manama"
  },
  {
    "coords": {
      "lat": 23.810332,
      "lon": 90.4125181
    },
    "country": "Bangladesh",
    "name": "Dhaka"
  },
  {
    "coords": {
      "lat": 13.1132219,
      "lon": -59.59880889999999
    },
    "country": "Barbados",
    "name": "Bridgetown"
  },
  {
    "coords": {
      "lat": 53.90453979999999,
      "lon": 27.5615244
    },
    "country": "Belarus",
    "name": "Minsk"
  },
  {
    "coords": {
      "lat": 50.8503396,
      "lon": 4.3517103
    },
    "country": "Belgium",
    "name": "Brussels"
  },
  {
    "coords": {
      "lat": 17.2510114,
      "lon": -88.7590201
    },
    "country": "Belize",
    "name": "Belmopan"
  },
  {
    "coords": {
      "lat": 6.4968574,
      "lon": 2.6288523
    },
    "country": "Benin",
    "name": "Porto-Novo"
  },
  {
    "coords": {
      "lat": 32.294816,
      "lon": -64.781375
    },
    "country": "Bermuda",
    "name": "Hamilton"
  },
  {
    "coords": {
      "lat": 27.4727924,
      "lon": 89.6392863
    },
    "country": "Bhutan",
    "name": "Thimphu"
  },
  {
    "coords": {
      "lat": -19.0195852,
      "lon": -65.2619615
    },
    "country": "Bolivia",
    "name": "Sucre"
  },
  {
    "coords": {
      "lat": 12.1443491,
      "lon": -68.2655456
    },
    "country": "Bonaire",
    "name": "Kralendijk"
  },
  {
    "coords": {
      "lat": 43.8562586,
      "lon": 18.4130763
    },
    "country": "Bosnia and Herzegovina",
    "name": "Sarajevo"
  },
  {
    "coords": {
      "lat": -24.6282079,
      "lon": 25.9231471
    },
    "country": "Botswana",
    "name": "Gaborone"
  },
  {
    "coords": {
      "lat": -54.423199,
      "lon": 3.413194
    },
    "country": "Bouvet Island",
    "name": ""
  },
  {
    "coords": {
      "lat": -15.7942287,
      "lon": -47.8821658
    },
    "country": "Brazil",
    "name": "Brasília"
  },
  {
    "coords": {
      "lat": -7.319500499999999,
      "lon": 72.42285559999999
    },
    "country": "British Indian Ocean Territory",
    "name": "Diego Garcia"
  },
  {
    "coords": {
      "lat": 18.4286115,
      "lon": -64.6184657
    },
    "country": "British Virgin Islands",
    "name": "Road Town"
  },
  {
    "coords": {
      "lat": 4.903052199999999,
      "lon": 114.939821
    },
    "country": "Brunei",
    "name": "Bandar Seri Begawan"
  },
  {
    "coords": {
      "lat": 42.6977082,
      "lon": 23.3218675
    },
    "country": "Bulgaria",
    "name": "Sofia"
  },
  {
    "coords": {
      "lat": 12.3714277,
      "lon": -1.5196603
    },
    "country": "Burkina Faso",
    "name": "Ouagadougou"
  },
  {
    "coords": {
      "lat": -3.361378,
      "lon": 29.3598782
    },
    "country": "Burundi",
    "name": "Bujumbura"
  },
  {
    "coords": {
      "lat": 11.5448729,
      "lon": 104.8921668
    },
    "country": "Cambodia",
    "name": "Phnom Penh"
  },
  {
    "coords": {
      "lat": 3.8480325,
      "lon": 11.5020752
    },
    "country": "Cameroon",
    "name": "Yaoundé"
  },
  {
    "coords": {
      "lat": 45.4215296,
      "lon": -75.69719309999999
    },
    "country": "Canada",
    "name": "Ottawa"
  },
  {
    "coords": {
      "lat": 14.93305,
      "lon": -23.5133267
    },
    "country": "Cape Verde",
    "name": "Praia"
  },
  {
    "coords": {
      "lat": 19.2869323,
      "lon": -81.3674389
    },
    "country": "Cayman Islands",
    "name": "George Town"
  },
  {
    "coords": {
      "lat": 4.3946735,
      "lon": 18.5581899
    },
    "country": "Central African Republic",
    "name": "Bangui"
  },
  {
    "coords": {
      "lat": 12.1348457,
      "lon": 15.0557415
    },
    "country": "Chad",
    "name": "N'Djamena"
  },
  {
    "coords": {
      "lat": -33.4488897,
      "lon": -70.6692655
    },
    "country": "Chile",
    "name": "Santiago"
  },
  {
    "coords": {
      "lat": 39.904211,
      "lon": 116.407395
    },
    "country": "China",
    "name": "Beijing"
  },
  {
    "coords": {
      "lat": -10.4206861,
      "lon": 105.6793792
    },
    "country": "Christmas Island",
    "name": "Flying Fish Cove"
  },
  {
    "coords": {
      "lat": -12.1888345,
      "lon": 96.8293159
    },
    "country": "Cocos (Keeling) Islands",
    "name": "West Island"
  },
  {
    "coords": {
      "lat": 4.710988599999999,
      "lon": -74.072092
    },
    "country": "Colombia",
    "name": "Bogotá"
  },
  {
    "coords": {
      "lat": -11.7172157,
      "lon": 43.2473146
    },
    "country": "Comoros",
    "name": "Moroni"
  },
  {
    "coords": {
      "lat": -21.2129007,
      "lon": -159.7823059
    },
    "country": "Cook Islands",
    "name": "Avarua"
  },
  {
    "coords": {
      "lat": 9.9280694,
      "lon": -84.0907246
    },
    "country": "Costa Rica",
    "name": "San José"
  },
  {
    "coords": {
      "lat": 45.8150108,
      "lon": 15.981919
    },
    "country": "Croatia",
    "name": "Zagreb"
  },
  {
    "coords": {
      "lat": 23.0540698,
      "lon": -82.34518899999999
    },
    "country": "Cuba",
    "name": "Havana"
  },
  {
    "coords": {
      "lat": 12.1224221,
      "lon": -68.8824233
    },
    "country": "Curaçao",
    "name": "Willemstad"
  },
  {
    "coords": {
      "lat": 35.0400155,
      "lon": 33.1239049
    },
    "country": "Cyprus",
    "name": "Nicosia"
  },
  {
    "coords": {
      "lat": 50.0755381,
      "lon": 14.4378005
    },
    "country": "Czech Republic",
    "name": "Prague"
  },
  {
    "coords": {
      "lat": -4.4419311,
      "lon": 15.2662931
    },
    "country": "Democratic Republic of the Congo",
    "name": "Kinshasa"
  },
  {
    "coords": {
      "lat": 55.6760968,
      "lon": 12.5683371
    },
    "country": "Denmark",
    "name": "Copenhagen"
  },
  {
    "coords": {
      "lat": 11.5720765,
      "lon": 43.1456475
    },
    "country": "Djibouti",
    "name": "Djibouti"
  },
  {
    "coords": {
      "lat": 15.3091676,
      "lon": -61.37935539999999
    },
    "country": "Dominica",
    "name": "Roseau"
  },
  {
    "coords": {
      "lat": 18.4860575,
      "lon": -69.93121169999999
    },
    "country": "Dominican Republic",
    "name": "Santo Domingo"
  },
  {
    "coords": {
      "lat": -8.5568557,
      "lon": 125.5603143
    },
    "country": "East Timor",
    "name": "Dili"
  },
  {
    "coords": {
      "lat": -0.1806532,
      "lon": -78.4678382
    },
    "country": "Ecuador",
    "name": "Quito"
  },
  {
    "coords": {
      "lat": 30.0444196,
      "lon": 31.2357116
    },
    "country": "Egypt",
    "name": "Cairo"
  },
  {
    "coords": {
      "lat": 13.6929403,
      "lon": -89.2181911
    },
    "country": "El Salvador",
    "name": "San Salvador"
  },
  {
    "coords": {
      "lat": 3.7504118,
      "lon": 8.7371039
    },
    "country": "Equatorial Guinea",
    "name": "Malabo"
  },
  {
    "coords": {
      "lat": 15.3228767,
      "lon": 38.9250517
    },
    "country": "Eritrea",
    "name": "Asmara"
  },
  {
    "coords": {
      "lat": 59.43696079999999,
      "lon": 24.7535746
    },
    "country": "Estonia",
    "name": "Tallinn"
  },
  {
    "coords": {
      "lat": 8.9806034,
      "lon": 38.7577605
    },
    "country": "Ethiopia",
    "name": "Addis Ababa"
  },
  {
    "coords": {
      "lat": -51.6977129,
      "lon": -57.85166269999999
    },
    "country": "Falkland Islands",
    "name": "Stanley"
  },
  {
    "coords": {
      "lat": 62.007864,
      "lon": -6.7909816
    },
    "country": "Faroe Islands",
    "name": "Tórshavn"
  },
  {
    "coords": {
      "lat": 6.9147118,
      "lon": 158.1610274
    },
    "country": "Federated States of Micronesia",
    "name": "Palikir"
  },
  {
    "coords": {
      "lat": -18.1248086,
      "lon": 178.4500789
    },
    "country": "Fiji",
    "name": "Suva"
  },
  {
    "coords": {
      "lat": 60.17332440000001,
      "lon": 24.9410248
    },
    "country": "Finland",
    "name": "Helsinki"
  },
  {
    "coords": {
      "lat": 48.856614,
      "lon": 2.3522219
    },
    "country": "France",
    "name": "Paris"
  },
  {
    "coords": {
      "lat": 4.92242,
      "lon": -52.3134531
    },
    "country": "French Guiana",
    "name": "Cayenne"
  },
  {
    "coords": {
      "lat": -17.5516251,
      "lon": -149.5584758
    },
    "country": "French Polynesia",
    "name": "Papeetē"
  },
  {
    "coords": {
      "lat": -49.3496422,
      "lon": 70.2180039
    },
    "country": "French Southern and Antarctic Lands",
    "name": "Port-aux-Français"
  },
  {
    "coords": {
      "lat": 0.4161976,
      "lon": 9.4672676
    },
    "country": "Gabon",
    "name": "Libreville"
  },
  {
    "coords": {
      "lat": 41.7151377,
      "lon": 44.827096
    },
    "country": "Georgia",
    "name": "Tbilisi"
  },
  {
    "coords": {
      "lat": 52.52000659999999,
      "lon": 13.404954
    },
    "country": "Germany",
    "name": "Berlin"
  },
  {
    "coords": {
      "lat": 5.6037168,
      "lon": -0.1869644
    },
    "country": "Ghana",
    "name": "Accra"
  },
  {
    "coords": {
      "lat": 36.1407734,
      "lon": -5.353599399999999
    },
    "country": "Gibraltar",
    "name": "Gibraltar"
  },
  {
    "coords": {
      "lat": 37.983917,
      "lon": 23.7293599
    },
    "country": "Greece",
    "name": "Athens"
  },
  {
    "coords": {
      "lat": 64.18140989999999,
      "lon": -51.694138
    },
    "country": "Greenland",
    "name": "Nuuk"
  },
  {
    "coords": {
      "lat": 12.0560975,
      "lon": -61.7487996
    },
    "country": "Grenada",
    "name": "St. George's"
  },
  {
    "coords": {
      "lat": 16.0144526,
      "lon": -61.7064109
    },
    "country": "Guadeloupe",
    "name": "Basse-Terre"
  },
  {
    "coords": {
      "lat": 13.4762824,
      "lon": 144.7502228
    },
    "country": "Guam",
    "name": "Hagåtña"
  },
  {
    "coords": {
      "lat": 14.6349149,
      "lon": -90.5068824
    },
    "country": "Guatemala",
    "name": "Guatemala City"
  },
  {
    "coords": {
      "lat": 49.455443,
      "lon": -2.5368711
    },
    "country": "Guernsey",
    "name": "St. Peter Port"
  },
  {
    "coords": {
      "lat": 9.641185499999999,
      "lon": -13.5784012
    },
    "country": "Guinea",
    "name": "Conakry"
  },
  {
    "coords": {
      "lat": 11.8816553,
      "lon": -15.6177942
    },
    "country": "Guinea-Bissau",
    "name": "Bissau"
  },
  {
    "coords": {
      "lat": 6.8012793,
      "lon": -58.1551255
    },
    "country": "Guyana",
    "name": "Georgetown"
  },
  {
    "coords": {
      "lat": 18.594395,
      "lon": -72.3074326
    },
    "country": "Haiti",
    "name": "Port-au-Prince"
  },
  {
    "coords": {
      "lat": -53.08181,
      "lon": 73.50415799999999
    },
    "country": "Heard Island and McDonald Islands",
    "name": ""
  },
  {
    "coords": {
      "lat": 14.0722751,
      "lon": -87.19213599999999
    },
    "country": "Honduras",
    "name": "Tegucigalpa"
  },
  {
    "coords": {
      "lat": 22.31956,
      "lon": 114.169718
    },
    "country": "Hong Kong",
    "name": "City of Victoria"
  },
  {
    "coords": {
      "lat": 47.497912,
      "lon": 19.040235
    },
    "country": "Hungary",
    "name": "Budapest"
  },
  {
    "coords": {
      "lat": 64.12652059999999,
      "lon": -21.8174393
    },
    "country": "Iceland",
    "name": "Reykjavik"
  },
  {
    "coords": {
      "lat": 28.6139391,
      "lon": 77.2090212
    },
    "country": "India",
    "name": "New Delhi"
  },
  {
    "coords": {
      "lat": -6.2087634,
      "lon": 106.845599
    },
    "country": "Indonesia",
    "name": "Jakarta"
  },
  {
    "coords": {
      "lat": 35.6891975,
      "lon": 51.3889736
    },
    "country": "Iran",
    "name": "Tehran"
  },
  {
    "coords": {
      "lat": 33.3128057,
      "lon": 44.3614875
    },
    "country": "Iraq",
    "name": "Baghdad"
  },
  {
    "coords": {
      "lat": 54.1523372,
      "lon": -4.4861228
    },
    "country": "Isle of Man",
    "name": "Douglas"
  },
  {
    "coords": {
      "lat": 31.768319,
      "lon": 35.21371
    },
    "country": "Israel",
    "name": "Jerusalem"
  },
  {
    "coords": {
      "lat": 41.9027835,
      "lon": 12.4963655
    },
    "country": "Italy",
    "name": "Rome"
  },
  {
    "coords": {
      "lat": 6.827622799999999,
      "lon": -5.2893433
    },
    "country": "Ivory Coast",
    "name": "Yamoussoukro"
  },
  {
    "coords": {
      "lat": 18.0178743,
      "lon": -76.8099041
    },
    "country": "Jamaica",
    "name": "Kingston"
  },
  {
    "coords": {
      "lat": 35.7090259,
      "lon": 139.7319925
    },
    "country": "Japan",
    "name": "Tokyo"
  },
  {
    "coords": {
      "lat": 49.1868225,
      "lon": -2.1065682
    },
    "country": "Jersey",
    "name": "Saint Helier"
  },
  {
    "coords": {
      "lat": 31.9565783,
      "lon": 35.9456951
    },
    "country": "Jordan",
    "name": "Amman"
  },
  {
    "coords": {
      "lat": 51.16052269999999,
      "lon": 71.4703558
    },
    "country": "Kazakhstan",
    "name": "Astana"
  },
  {
    "coords": {
      "lat": -1.2920659,
      "lon": 36.8219462
    },
    "country": "Kenya",
    "name": "Nairobi"
  },
  {
    "coords": {
      "lat": 1.3290526,
      "lon": 172.9790528
    },
    "country": "Kiribati",
    "name": "South Tarawa"
  },
  {
    "coords": {
      "lat": 29.375859,
      "lon": 47.9774052
    },
    "country": "Kuwait",
    "name": "Kuwait City"
  },
  {
    "coords": {
      "lat": 42.8746212,
      "lon": 74.5697617
    },
    "country": "Kyrgyzstan",
    "name": "Bishkek"
  },
  {
    "coords": {
      "lat": 17.9757058,
      "lon": 102.6331035
    },
    "country": "Laos",
    "name": "Vientiane"
  },
  {
    "coords": {
      "lat": 56.9496487,
      "lon": 24.1051864
    },
    "country": "Latvia",
    "name": "Riga"
  },
  {
    "coords": {
      "lat": 33.8886289,
      "lon": 35.4954794
    },
    "country": "Lebanon",
    "name": "Beirut"
  },
  {
    "coords": {
      "lat": -29.36321879999999,
      "lon": 27.5143603
    },
    "country": "Lesotho",
    "name": "Maseru"
  },
  {
    "coords": {
      "lat": 6.2907432,
      "lon": -10.7605239
    },
    "country": "Liberia",
    "name": "Monrovia"
  },
  {
    "coords": {
      "lat": 32.8872094,
      "lon": 13.1913383
    },
    "country": "Libya",
    "name": "Tripoli"
  },
  {
    "coords": {
      "lat": 47.1410303,
      "lon": 9.5209277
    },
    "country": "Liechtenstein",
    "name": "Vaduz"
  },
  {
    "coords": {
      "lat": 54.6871555,
      "lon": 25.2796514
    },
    "country": "Lithuania",
    "name": "Vilnius"
  },
  {
    "coords": {
      "lat": 49.61162100000001,
      "lon": 6.1319346
    },
    "country": "Luxembourg",
    "name": "Luxembourg"
  },
  {
    "coords": {
      "lat": 22.198745,
      "lon": 113.543873
    },
    "country": "Macau",
    "name": ""
  },
  {
    "coords": {
      "lat": -18.8791902,
      "lon": 47.5079055
    },
    "country": "Madagascar",
    "name": "Antananarivo"
  },
  {
    "coords": {
      "lat": -13.9626121,
      "lon": 33.7741195
    },
    "country": "Malawi",
    "name": "Lilongwe"
  },
  {
    "coords": {
      "lat": 3.139003,
      "lon": 101.686855
    },
    "country": "Malaysia",
    "name": "Kuala Lumpur"
  },
  {
    "coords": {
      "lat": 4.1754959,
      "lon": 73.5093474
    },
    "country": "Maldives",
    "name": "Malé"
  },
  {
    "coords": {
      "lat": 12.6392316,
      "lon": -8.0028892
    },
    "country": "Mali",
    "name": "Bamako"
  },
  {
    "coords": {
      "lat": 35.8989085,
      "lon": 14.5145528
    },
    "country": "Malta",
    "name": "Valletta"
  },
  {
    "coords": {
      "lat": 7.1164214,
      "lon": 171.1857736
    },
    "country": "Marshall Islands",
    "name": "Majuro"
  },
  {
    "coords": {
      "lat": 14.6160647,
      "lon": -61.0587804
    },
    "country": "Martinique",
    "name": "Fort-de-France"
  },
  {
    "coords": {
      "lat": 18.0735299,
      "lon": -15.9582372
    },
    "country": "Mauritania",
    "name": "Nouakchott"
  },
  {
    "coords": {
      "lat": -20.1668958,
      "lon": 57.502332
    },
    "country": "Mauritius",
    "name": "Port Louis"
  },
  {
    "coords": {
      "lat": -12.7809488,
      "lon": 45.227872
    },
    "country": "Mayotte",
    "name": "Mamoudzou"
  },
  {
    "coords": {
      "lat": 19.4326077,
      "lon": -99.133208
    },
    "country": "Mexico",
    "name": "Mexico City"
  },
  {
    "coords": {
      "lat": 47.0104529,
      "lon": 28.8638103
    },
    "country": "Moldova",
    "name": "Chișinău"
  },
  {
    "coords": {
      "lat": 43.73741099999999,
      "lon": 7.420815999999999
    },
    "country": "Monaco",
    "name": "Monaco"
  },
  {
    "coords": {
      "lat": 47.88639879999999,
      "lon": 106.9057439
    },
    "country": "Mongolia",
    "name": "Ulan Bator"
  },
  {
    "coords": {
      "lat": 42.4304196,
      "lon": 19.2593642
    },
    "country": "Montenegro",
    "name": "Podgorica"
  },
  {
    "coords": {
      "lat": 16.706523,
      "lon": -62.21573799999999
    },
    "country": "Montserrat",
    "name": "Plymouth"
  },
  {
    "coords": {
      "lat": 33.9715904,
      "lon": -6.8498129
    },
    "country": "Morocco",
    "name": "Rabat"
  },
  {
    "coords": {
      "lat": -25.891968,
      "lon": 32.6051351
    },
    "country": "Mozambique",
    "name": "Maputo"
  },
  {
    "coords": {
      "lat": 19.7633057,
      "lon": 96.07851040000001
    },
    "country": "Myanmar",
    "name": "Naypyidaw"
  },
  {
    "coords": {
      "lat": -22.5608807,
      "lon": 17.0657549
    },
    "country": "Namibia",
    "name": "Windhoek"
  },
  {
    "coords": {
      "lat": -0.5466856999999999,
      "lon": 166.9210913
    },
    "country": "Nauru",
    "name": "Yaren"
  },
  {
    "coords": {
      "lat": 27.7172453,
      "lon": 85.3239605
    },
    "country": "Nepal",
    "name": "Kathmandu"
  },
  {
    "coords": {
      "lat": 52.3702157,
      "lon": 4.895167900000001
    },
    "country": "Netherlands",
    "name": "Amsterdam"
  },
  {
    "coords": {
      "lat": -22.2558234,
      "lon": 166.4505243
    },
    "country": "New Caledonia",
    "name": "Nouméa"
  },
  {
    "coords": {
      "lat": -41.2864603,
      "lon": 174.776236
    },
    "country": "New Zealand",
    "name": "Wellington"
  },
  {
    "coords": {
      "lat": 12.1149926,
      "lon": -86.2361744
    },
    "country": "Nicaragua",
    "name": "Managua"
  },
  {
    "coords": {
      "lat": 13.5115963,
      "lon": 2.1253854
    },
    "country": "Niger",
    "name": "Niamey"
  },
  {
    "coords": {
      "lat": 9.0764785,
      "lon": 7.398574
    },
    "country": "Nigeria",
    "name": "Abuja"
  },
  {
    "coords": {
      "lat": -19.0553711,
      "lon": -169.9178709
    },
    "country": "Niue",
    "name": "Alofi"
  },
  {
    "coords": {
      "lat": -29.0563937,
      "lon": 167.959588
    },
    "country": "Norfolk Island",
    "name": "Kingston"
  },
  {
    "coords": {
      "lat": 39.0392193,
      "lon": 125.7625241
    },
    "country": "North Korea",
    "name": "Pyongyang"
  },
  {
    "coords": {
      "lat": 15.177801,
      "lon": 145.750967
    },
    "country": "Northern Mariana Islands",
    "name": "Saipan"
  },
  {
    "coords": {
      "lat": 59.9138688,
      "lon": 10.7522454
    },
    "country": "Norway",
    "name": "Oslo"
  },
  {
    "coords": {
      "lat": 23.58589,
      "lon": 58.4059227
    },
    "country": "Oman",
    "name": "Muscat"
  },
  {
    "coords": {
      "lat": 33.7293882,
      "lon": 73.0931461
    },
    "country": "Pakistan",
    "name": "Islamabad"
  },
  {
    "coords": {
      "lat": 7.5003835,
      "lon": 134.624289
    },
    "country": "Palau",
    "name": "Ngerulmud"
  },
  {
    "coords": {
      "lat": 31.8980428,
      "lon": 35.2042714
    },
    "country": "Palestine",
    "name": "Ramallah"
  },
  {
    "coords": {
      "lat": 9.1011785,
      "lon": -79.4028639
    },
    "country": "Panama",
    "name": "Panama City"
  },
  {
    "coords": {
      "lat": -9.443800399999999,
      "lon": 147.1802671
    },
    "country": "Papua New Guinea",
    "name": "Port Moresby"
  },
  {
    "coords": {
      "lat": -25.2637399,
      "lon": -57.57592599999999
    },
    "country": "Paraguay",
    "name": "Asunción"
  },
  {
    "coords": {
      "lat": -12.046374,
      "lon": -77.0427934
    },
    "country": "Peru",
    "name": "Lima"
  },
  {
    "coords": {
      "lat": 14.5995124,
      "lon": 120.9842195
    },
    "country": "Philippines",
    "name": "Manila"
  },
  {
    "coords": {
      "lat": -25.0662897,
      "lon": -130.1004636
    },
    "country": "Pitcairn Islands",
    "name": "Adamstown"
  },
  {
    "coords": {
      "lat": 52.2296756,
      "lon": 21.0122287
    },
    "country": "Poland",
    "name": "Warsaw"
  },
  {
    "coords": {
      "lat": 38.7222524,
      "lon": -9.1393366
    },
    "country": "Portugal",
    "name": "Lisbon"
  },
  {
    "coords": {
      "lat": 18.4663338,
      "lon": -66.1057217
    },
    "country": "Puerto Rico",
    "name": "San Juan"
  },
  {
    "coords": {
      "lat": 25.2854473,
      "lon": 51.53103979999999
    },
    "country": "Qatar",
    "name": "Doha"
  },
  {
    "coords": {
      "lat": 53.3498053,
      "lon": -6.2603097
    },
    "country": "Republic of Ireland",
    "name": "Dublin"
  },
  {
    "coords": {
      "lat": 42.6647855,
      "lon": 21.1641509
    },
    "country": "Republic of Kosovo",
    "name": "Pristina"
  },
  {
    "coords": {
      "lat": 41.9973462,
      "lon": 21.4279956
    },
    "country": "Republic of Macedonia",
    "name": "Skopje"
  },
  {
    "coords": {
      "lat": -4.2633597,
      "lon": 15.2428853
    },
    "country": "Republic of the Congo",
    "name": "Brazzaville"
  },
  {
    "coords": {
      "lat": 44.4267674,
      "lon": 26.1025384
    },
    "country": "Romania",
    "name": "Bucharest"
  },
  {
    "coords": {
      "lat": 55.755826,
      "lon": 37.6173
    },
    "country": "Russia",
    "name": "Moscow"
  },
  {
    "coords": {
      "lat": -1.9705786,
      "lon": 30.1044288
    },
    "country": "Rwanda",
    "name": "Kigali"
  },
  {
    "coords": {
      "lat": -20.882057,
      "lon": 55.450675
    },
    "country": "Réunion",
    "name": "Saint-Denis"
  },
  {
    "coords": {
      "lat": 17.8964345,
      "lon": -62.85220099999999
    },
    "country": "Saint Barthélemy",
    "name": "Gustavia"
  },
  {
    "coords": {
      "lat": -15.9286343,
      "lon": -5.7151749
    },
    "country": "Saint Helena",
    "name": "Jamestown"
  },
  {
    "coords": {
      "lat": 17.3026058,
      "lon": -62.7176924
    },
    "country": "Saint Kitts and Nevis",
    "name": "Basseterre"
  },
  {
    "coords": {
      "lat": 14.0101094,
      "lon": -60.98746869999999
    },
    "country": "Saint Lucia",
    "name": "Castries"
  },
  {
    "coords": {
      "lat": 18.0675189,
      "lon": -63.0824656
    },
    "country": "Saint Martin",
    "name": "Marigot"
  },
  {
    "coords": {
      "lat": 46.7758459,
      "lon": -56.1806363
    },
    "country": "Saint Pierre and Miquelon",
    "name": "Saint-Pierre"
  },
  {
    "coords": {
      "lat": 13.1600249,
      "lon": -61.2248157
    },
    "country": "Saint Vincent and the Grenadines",
    "name": "Kingstown"
  },
  {
    "coords": {
      "lat": -13.8506958,
      "lon": -171.7513551
    },
    "country": "Samoa",
    "name": "Apia"
  },
  {
    "coords": {
      "lat": 43.9355907,
      "lon": 12.4472806
    },
    "country": "San Marino",
    "name": "City of San Marino"
  },
  {
    "coords": {
      "lat": 25.0054482,
      "lon": 46.544831
    },
    "country": "Saudi Arabia",
    "name": "Riyadh"
  },
  {
    "coords": {
      "lat": 14.7645042,
      "lon": -17.3660286
    },
    "country": "Senegal",
    "name": "Dakar"
  },
  {
    "coords": {
      "lat": 44.786568,
      "lon": 20.4489216
    },
    "country": "Serbia",
    "name": "Belgrade"
  },
  {
    "coords": {
      "lat": -4.619143,
      "lon": 55.4513149
    },
    "country": "Seychelles",
    "name": "Victoria"
  },
  {
    "coords": {
      "lat": 8.4656765,
      "lon": -13.2317225
    },
    "country": "Sierra Leone",
    "name": "Freetown"
  },
  {
    "coords": {
      "lat": 1.3553794,
      "lon": 103.8677444
    },
    "country": "Singapore",
    "name": "Singapore"
  },
  {
    "coords": {
      "lat": 18.0295839,
      "lon": -63.04713709999999
    },
    "country": "Sint Maarten",
    "name": "Philipsburg"
  },
  {
    "coords": {
      "lat": 48.1458923,
      "lon": 17.1071373
    },
    "country": "Slovakia",
    "name": "Bratislava"
  },
  {
    "coords": {
      "lat": 46.0569465,
      "lon": 14.5057515
    },
    "country": "Slovenia",
    "name": "Ljubljana"
  },
  {
    "coords": {
      "lat": -9.4456381,
      "lon": 159.9728999
    },
    "country": "Solomon Islands",
    "name": "Honiara"
  },
  {
    "coords": {
      "lat": 2.0469343,
      "lon": 45.3181623
    },
    "country": "Somalia",
    "name": "Mogadishu"
  },
  {
    "coords": {
      "lat": -25.7478676,
      "lon": 28.2292712
    },
    "country": "South Africa",
    "name": "Pretoria"
  },
  {
    "coords": {
      "lat": -54.2832502,
      "lon": -36.493735
    },
    "country": "South Georgia",
    "name": "King Edward Point"
  },
  {
    "coords": {
      "lat": 37.566535,
      "lon": 126.9779692
    },
    "country": "South Korea",
    "name": "Seoul"
  },
  {
    "coords": {
      "lat": 4.859363,
      "lon": 31.57125
    },
    "country": "South Sudan",
    "name": "Juba"
  },
  {
    "coords": {
      "lat": 40.4167754,
      "lon": -3.7037902
    },
    "country": "Spain",
    "name": "Madrid"
  },
  {
    "coords": {
      "lat": 6.9270786,
      "lon": 79.861243
    },
    "country": "Sri Lanka",
    "name": "Colombo"
  },
  {
    "coords": {
      "lat": 15.5006544,
      "lon": 32.5598994
    },
    "country": "Sudan",
    "name": "Khartoum"
  },
  {
    "coords": {
      "lat": 5.8520355,
      "lon": -55.2038278
    },
    "country": "Suriname",
    "name": "Paramaribo"
  },
  {
    "coords": {
      "lat": 78.22317220000001,
      "lon": 15.626723
    },
    "country": "Svalbard and Jan Mayen",
    "name": "Longyearbyen"
  },
  {
    "coords": {
      "lat": -26.400429,
      "lon": 31.1824925
    },
    "country": "Swaziland",
    "name": "Lobamba"
  },
  {
    "coords": {
      "lat": 59.32932349999999,
      "lon": 18.0685808
    },
    "country": "Sweden",
    "name": "Stockholm"
  },
  {
    "coords": {
      "lat": 46.9479739,
      "lon": 7.4474468
    },
    "country": "Switzerland",
    "name": "Bern"
  },
  {
    "coords": {
      "lat": 33.5138073,
      "lon": 36.2765279
    },
    "country": "Syria",
    "name": "Damascus"
  },
  {
    "coords": {
      "lat": 0.3301924,
      "lon": 6.733343
    },
    "country": "São Tomé and Príncipe",
    "name": "São Tomé"
  },
  {
    "coords": {
      "lat": 25.0329694,
      "lon": 121.5654177
    },
    "country": "Taiwan",
    "name": "Taipei"
  },
  {
    "coords": {
      "lat": 38.5597722,
      "lon": 68.7870384
    },
    "country": "Tajikistan",
    "name": "Dushanbe"
  },
  {
    "coords": {
      "lat": -6.162959000000001,
      "lon": 35.7516069
    },
    "country": "Tanzania",
    "name": "Dodoma"
  },
  {
    "coords": {
      "lat": 13.7563309,
      "lon": 100.5017651
    },
    "country": "Thailand",
    "name": "Bangkok"
  },
  {
    "coords": {
      "lat": 25.0479835,
      "lon": -77.355413
    },
    "country": "The Bahamas",
    "name": "Nassau"
  },
  {
    "coords": {
      "lat": 13.4548761,
      "lon": -16.5790323
    },
    "country": "The Gambia",
    "name": "Banjul"
  },
  {
    "coords": {
      "lat": 6.1724969,
      "lon": 1.2313618
    },
    "country": "Togo",
    "name": "Lomé"
  },
  {
    "coords": {
      "lat": -9.380255499999999,
      "lon": -171.2188355
    },
    "country": "Tokelau",
    "name": "Fakaofo"
  },
  {
    "coords": {
      "lat": -21.1393418,
      "lon": -175.204947
    },
    "country": "Tonga",
    "name": "Nuku'alofa"
  },
  {
    "coords": {
      "lat": 10.6549013,
      "lon": -61.50192559999999
    },
    "country": "Trinidad and Tobago",
    "name": "Port of Spain"
  },
  {
    "coords": {
      "lat": 36.8064948,
      "lon": 10.1815316
    },
    "country": "Tunisia",
    "name": "Tunis"
  },
  {
    "coords": {
      "lat": 39.9333635,
      "lon": 32.8597419
    },
    "country": "Turkey",
    "name": "Ankara"
  },
  {
    "coords": {
      "lat": 37.9600766,
      "lon": 58.32606289999999
    },
    "country": "Turkmenistan",
    "name": "Ashgabat"
  },
  {
    "coords": {
      "lat": 21.4674584,
      "lon": -71.13891009999999
    },
    "country": "Turks and Caicos Islands",
    "name": "Cockburn Town"
  },
  {
    "coords": {
      "lat": -8.5200657,
      "lon": 179.198128
    },
    "country": "Tuvalu",
    "name": "Funafuti"
  },
  {
    "coords": {
      "lat": 0.3475964,
      "lon": 32.5825197
    },
    "country": "Uganda",
    "name": "Kampala"
  },
  {
    "coords": {
      "lat": 50.4501,
      "lon": 30.5234
    },
    "country": "Ukraine",
    "name": "Kiev"
  },
  {
    "coords": {
      "lat": 24.2991738,
      "lon": 54.6972774
    },
    "country": "United Arab Emirates",
    "name": "Abu Dhabi"
  },
  {
    "coords": {
      "lat": 51.5073509,
      "lon": -0.1277583
    },
    "country": "United Kingdom",
    "name": "London"
  },
  {
    "coords": {
      "lat": 38.9071923,
      "lon": -77.0368707
    },
    "country": "United States",
    "name": "Washington D.C."
  },
  {
    "coords": {
      "lat": 19.2823192,
      "lon": 166.647047
    },
    "country": "United States Minor Outlying Islands",
    "name": ""
  },
  {
    "coords": {
      "lat": -34.9011127,
      "lon": -56.16453139999999
    },
    "country": "Uruguay",
    "name": "Montevideo"
  },
  {
    "coords": {
      "lat": 41.2994958,
      "lon": 69.2400734
    },
    "country": "Uzbekistan",
    "name": "Tashkent"
  },
  {
    "coords": {
      "lat": -17.7332512,
      "lon": 168.3273245
    },
    "country": "Vanuatu",
    "name": "Port Vila"
  },
  {
    "coords": {
      "lat": 10.4805937,
      "lon": -66.90360629999999
    },
    "country": "Venezuela",
    "name": "Caracas"
  },
  {
    "coords": {
      "lat": 21.0277644,
      "lon": 105.8341598
    },
    "country": "Vietnam",
    "name": "Hanoi"
  },
  {
    "coords": {
      "lat": -13.2825091,
      "lon": -176.1764475
    },
    "country": "Wallis and Futuna",
    "name": "Mata-Utu"
  },
  {
    "coords": {
      "lat": 26.7599542,
      "lon": -12.989615
    },
    "country": "Western Sahara",
    "name": "El Aaiún"
  },
  {
    "coords": {
      "lat": 15.3694451,
      "lon": 44.1910066
    },
    "country": "Yemen",
    "name": "Sana'a"
  },
  {
    "coords": {
      "lat": -15.3875259,
      "lon": 28.3228165
    },
    "country": "Zambia",
    "name": "Lusaka"
  },
  {
    "coords": {
      "lat": -17.8251657,
      "lon": 31.03351
    },
    "country": "Zimbabwe",
    "name": "Harare"
  },
  {
    "coords": {
      "lat": 60.0970945,
      "lon": 19.9348339
    },
    "country": "Åland Islands",
    "name": "Mariehamn"
  }
]
